{
    "metadata": {
        "description": "日本国内で稼働中のRaspberry Shake RS4D観測点一覧",
        "source": "data.raspberryshake.org FDSN Station API + OpenStreetMap Nominatim",
        "retrieved": "2026-05-24",
        "note": "座標はRaspberry Shakeのプライバシーポリシーにより約0.1°単位で丸められている",
        "rs4d_criteria": "ENZ（加速度垂直）とEHZ（速度垂直）の両チャンネルを持つ局"
    },
    "stations": [
        {"code": "AM.R0BEF", "lat": 35.1802, "lon": 136.9274, "elev_m": 12,  "pref": "愛知県",   "city": "名古屋市",     "active_since": "2019-06-02"},
        {"code": "AM.R151E", "lat": 35.5676, "lon": 139.4114, "elev_m": 109, "pref": "神奈川県", "city": "相模原市",     "active_since": "2021-07-18"},
        {"code": "AM.R1C2B", "lat": 42.8829, "lon": 141.5975, "elev_m": 19,  "pref": "北海道",   "city": "恵庭市",       "active_since": "2022-04-05"},
        {"code": "AM.R1ED1", "lat": 35.3784, "lon": 139.2370, "elev_m": 108, "pref": "神奈川県", "city": "秦野市",       "active_since": "2021-12-16"},
        {"code": "AM.R2231", "lat": 35.7928, "lon": 139.9123, "elev_m": 25,  "pref": "千葉県",   "city": "松戸市",       "active_since": "2021-05-02"},
        {"code": "AM.R38DC", "lat": 35.1351, "lon": 138.9269, "elev_m": 120, "pref": "静岡県",   "city": "三島市",       "active_since": "2018-01-08"},
        {"code": "AM.R44B9", "lat": 37.6126, "lon": 138.9668, "elev_m": 13,  "pref": "新潟県",   "city": "三条市",       "active_since": "2022-05-27"},
        {"code": "AM.R4764", "lat": 34.3333, "lon": 135.5864, "elev_m": 197, "pref": "和歌山県", "city": "橋本市",       "active_since": "2021-04-13"},
        {"code": "AM.R503C", "lat": 35.2973, "lon": 136.7941, "elev_m": 12,  "pref": "愛知県",   "city": "一宮市",       "active_since": "2025-05-02"},
        {"code": "AM.R57EA", "lat": 35.6667, "lon": 139.6805, "elev_m": 34,  "pref": "東京都",   "city": "渋谷区",       "active_since": "2021-07-30"},
        {"code": "AM.R5E4A", "lat": 38.2432, "lon": 140.3494, "elev_m": 197, "pref": "山形県",   "city": "山形市",       "active_since": "2025-10-23"},
        {"code": "AM.R6E01", "lat": 33.2883, "lon": 130.9469, "elev_m": 108, "pref": "大分県",   "city": "日田市",       "active_since": "2025-05-02"},
        {"code": "AM.R8259", "lat": 35.7658, "lon": 139.5325, "elev_m": 53,  "pref": "東京都",   "city": "東久留米市",   "active_since": "2020-07-12"},
        {"code": "AM.R9B32", "lat": 36.0000, "lon": 140.1629, "elev_m": 25,  "pref": "茨城県",   "city": "牛久市",       "active_since": "2024-01-22"},
        {"code": "AM.R9F7A", "lat": 35.0450, "lon": 136.0554, "elev_m": 140, "pref": "滋賀県",   "city": "湖南市",       "active_since": "2022-03-17"},
        {"code": "AM.RA358", "lat": 35.8829, "lon": 139.6279, "elev_m": 48,  "pref": "埼玉県",   "city": "さいたま市",   "active_since": "2022-09-01"},
        {"code": "AM.RAC10", "lat": 35.6306, "lon": 139.7247, "elev_m": 115, "pref": "東京都",   "city": "品川区",       "active_since": "2022-08-08"},
        {"code": "AM.RB0E1", "lat": 35.6577, "lon": 139.3961, "elev_m": 96,  "pref": "東京都",   "city": "日野市",       "active_since": "2020-09-14"},
        {"code": "AM.RC740", "lat": 26.2432, "lon": 127.7605, "elev_m": 119, "pref": "沖縄県",   "city": "中頭郡西原町", "active_since": "2018-01-29"},
        {"code": "AM.RDBC2", "lat": 36.0000, "lon": 140.1629, "elev_m": 19,  "pref": "茨城県",   "city": "牛久市",       "active_since": "2025-01-11"},
        {"code": "AM.RDE84", "lat": 35.3874, "lon": 139.5504, "elev_m": 33,  "pref": "神奈川県", "city": "横浜市",       "active_since": "2020-10-29"},
        {"code": "AM.RE4F9", "lat": 35.8018, "lon": 139.2167, "elev_m": 240, "pref": "東京都",   "city": "青梅市",       "active_since": "2026-02-28"},
        {"code": "AM.REC8D", "lat": 35.7117, "lon": 139.6391, "elev_m": 42,  "pref": "東京都",   "city": "杉並区",       "active_since": "2019-07-03"},
        {"code": "AM.RF91C", "lat": 33.2973, "lon": 129.8343, "elev_m": 10,  "pref": "佐賀県",   "city": "伊万里市",     "active_since": "2020-06-30"},
        {"code": "AM.S6EAF", "lat": 26.8559, "lon": 128.2583, "elev_m": 101, "pref": "沖縄県",   "city": "国頭郡国頭村", "active_since": "2021-01-18"},
        {"code": "AM.S9AF3", "lat": 36.1261, "lon": 140.0749, "elev_m": 29,  "pref": "茨城県",   "city": "つくば市",     "active_since": "2025-02-25"},
        {"code": "AM.SF44C", "lat": 38.3243, "lon": 140.8823, "elev_m": 38,  "pref": "宮城県",   "city": "仙台市",       "active_since": "2021-12-24"}
    ]
}
